{
  "route": "rawai-airport",
  "direction": "southbound",
  "label": "Phuket Airport → Rawai Beach",
  "stops": [
    { "id": "phuket-airport", "name": "Phuket Airport", "name_th": "สนามบิน ภูเก็ต", "lat": 8.1080, "lng": 98.3168 },
    { "id": "thalang-health", "name": "Thalang Public Health Office", "name_th": "สาธารณสุข ถลาง", "lat": 8.0250, "lng": 98.3200 },
    { "id": "baan-khian", "name": "Baan Khian", "name_th": "บ้านเคียน", "lat": 8.0100, "lng": 98.3150 },
    { "id": "cherngtalay-school", "name": "Cherngtalay School", "name_th": "โรงเรียน เชิงทะเล", "lat": 7.9920, "lng": 98.3085 },
    { "id": "lotus-cherngtalay", "name": "Lotus Cherngtalay", "name_th": "โลตัส เชิงทะเล", "lat": 7.9858, "lng": 98.3021 },
    { "id": "surin-beach", "name": "Surin Beach", "name_th": "หาดสุรินทร์", "lat": 7.9715, "lng": 98.2790 },
    { "id": "kubur-kamala", "name": "Kubur Kamala", "name_th": "กุบูร์ กมลา", "lat": 7.9530, "lng": 98.2840 },
    { "id": "phuket-fantasea", "name": "Phuket FantaSea", "name_th": "ภูเก็ตแฟนตาซี", "lat": 7.9565, "lng": 98.2874 },
    { "id": "bigc-kamala", "name": "Big C Kamala", "name_th": "บิ๊กซี กมลา", "lat": 7.9480, "lng": 98.2803 },
    { "id": "pea-patong", "name": "PEA Patong", "name_th": "การไฟฟ้า ป่าตอง", "lat": 7.8850, "lng": 98.2955 },
    { "id": "karon-circle", "name": "Karon Circle", "name_th": "วงเวียน กะรน", "lat": 7.8402, "lng": 98.2935 },
    { "id": "karon-stadium", "name": "Karon Stadium", "name_th": "สนามกีฬา กะรน", "lat": 7.8241, "lng": 98.2995 },
    { "id": "kata-night-plaza", "name": "Kata Night Plaza", "name_th": "ไนท์พลาซ่า", "lat": 7.8135, "lng": 98.2970 },
    { "id": "kata-palm", "name": "Kata Palm", "name_th": "กะตะ ปาล์ม", "lat": 7.8030, "lng": 98.2980 },
    { "id": "sai-yuan", "name": "Sai Yuan", "name_th": "ใสยวน", "lat": 7.7850, "lng": 98.3100 },
    { "id": "rawai-beach", "name": "Rawai Beach", "name_th": "หาดราไวย์", "lat": 7.7719, "lng": 98.3217 }
  ],
  "departures": [
    { "trip": 1,  "times": ["08:15", "08:25", "08:35", "08:40", "08:45", "08:50", "08:55", "08:58", "09:03", "09:25", "09:37", "09:42", "09:47", "09:52", "10:02", "10:15"] },
    { "trip": 2,  "times": ["09:00", "09:10", "09:20", "09:25", "09:40", "09:45", "09:50", "09:53", "09:58", "10:20", "10:32", "10:37", "10:42", "10:47", "10:57", "11:10"] },
    { "trip": 3,  "times": ["10:00", "10:10", "10:20", "10:25", "10:30", "10:35", "10:40", "10:43", "10:48", "11:20", "11:32", "11:37", "11:42", "11:47", "11:57", "12:10"] },
    { "trip": 4,  "times": ["11:00", "11:10", "11:20", "11:25", "11:30", "11:35", "11:40", "11:43", "11:48", "12:20", "12:32", "12:37", "12:42", "12:47", "12:57", "13:10"] },
    { "trip": 5,  "times": ["12:00", "12:10", "12:20", "12:25", "12:30", "12:35", "12:40", "12:43", "12:48", "13:20", "13:32", "13:37", "13:42", "13:47", "13:57", "14:10"] },
    { "trip": 6,  "times": ["13:00", "13:10", "13:20", "13:25", "13:30", "13:35", "13:40", "13:43", "13:48", "14:20", "14:32", "14:37", "14:42", "14:47", "14:57", "15:10"] },
    { "trip": 7,  "times": ["14:00", "14:10", "14:20", "14:25", "14:30", "14:35", "14:40", "14:43", "14:48", "15:20", "15:32", "15:37", "15:42", "15:47", "15:57", "16:10"] },
    { "trip": 8,  "times": ["14:30", "14:40", "14:50", "14:55", "15:00", "15:05", "15:10", "15:13", "15:18", "15:50", "16:02", "16:07", "16:12", "16:17", "16:27", "16:40"] },
    { "trip": 9,  "times": ["15:00", "15:10", "15:20", "15:25", "15:30", "15:35", "15:40", "15:43", "15:48", "16:20", "16:32", "16:37", "16:42", "16:47", "16:57", "17:10"] },
    { "trip": 10, "times": ["15:30", "15:40", "15:50", "15:55", "16:00", "16:05", "16:10", "16:13", "16:18", "16:50", "17:02", "17:07", "17:12", "17:17", "17:27", "17:40"] },
    { "trip": 11, "times": ["16:00", "16:10", "16:20", "16:25", "16:30", "16:35", "16:40", "16:43", "16:48", "17:20", "17:32", "17:37", "17:42", "17:47", "17:57", "18:10"] },
    { "trip": 12, "times": ["16:30", "16:40", "16:50", "16:55", "17:00", "17:05", "17:10", "17:13", "17:18", "17:50", "18:02", "18:07", "18:12", "18:17", "18:27", "18:40"] },
    { "trip": 13, "times": ["17:00", "17:10", "17:20", "17:25", "17:30", "17:35", "17:40", "17:43", "17:48", "18:20", "18:32", "18:37", "18:42", "18:47", "18:57", "19:10"] },
    { "trip": 14, "times": ["18:00", "18:10", "18:20", "18:25", "18:30", "18:35", "18:40", "18:43", "18:48", "19:20", "19:32", "19:37", "19:42", "19:47", "19:57", "20:10"] },
    { "trip": 15, "times": ["19:00", "19:10", "19:20", "19:25", "19:30", "19:35", "19:40", "19:43", "19:48", "20:20", "20:32", "20:37", "20:42", "20:47", "20:57", "21:10"] },
    { "trip": 16, "times": ["20:00", "20:10", "20:20", "20:25", "20:40", "20:45", "20:50", "20:53", "20:58", "21:30", "21:42", "21:47", "21:52", "21:57", "22:07", "22:20"] },
    { "trip": 17, "times": ["21:00", "21:10", "21:20", "21:25", "21:30", "21:35", "21:40", "21:43", "21:48", "22:20", "22:32", "22:37", "22:42", "22:47", "22:57", "23:10"] },
    { "trip": 18, "times": ["22:00", "22:10", "22:20", "22:25", "22:30", "22:35", "22:40", "22:43", "22:48", "23:20", "23:32", "23:37", "23:42", "23:47", "23:57", "00:10"] },
    { "trip": 19, "times": ["22:40", "22:50", "23:00", "23:05", "23:10", "23:15", "23:20", "23:23", "23:28", "00:00", "00:12", "00:17", "00:22", "00:27", "00:37", "00:50"] },
    { "trip": 20, "times": ["23:30", "23:40", "23:50", "23:55", "00:00", "00:05", "00:10", "00:13", "00:18", "00:50", "01:02", "01:07", "01:12", "01:17", "01:12", "01:17"] }
  ]
}
